City_ID,City,Lat,Lon,Max Temp,Humidity,Cloudiness,Wind Speed,Country,Date
0,salalah,17.02,54.09,69.8,73,20,4.7,OM,1581213379
1,dingle,11.0,122.67,81.3,76,85,13.56,PH,1581213379
2,kodiak,57.79,-152.41,39.2,55,40,13.87,US,1581213379
3,ulladulla,-35.35,150.47,66.2,100,90,21.92,AU,1581213379
4,mahebourg,-20.41,57.7,77.0,73,20,5.82,MU,1581213379
5,rikitea,-23.12,-134.97,77.38,78,44,15.82,PF,1581213379
6,necochea,-38.55,-58.74,59.0,75,67,7.0,AR,1581213103
7,tasiilaq,65.61,-37.64,28.4,86,100,40.26,GL,1581213380
8,padang,-0.95,100.35,79.07,64,100,2.35,ID,1581213380
9,mataura,-46.19,168.86,55.0,86,100,14.0,NZ,1581213380
10,salinopolis,-0.61,-47.36,78.87,81,100,16.28,BR,1581213121
11,dhidhdhoo,6.88,73.1,81.36,77,0,16.08,MV,1581213380
12,albany,42.6,-73.97,19.99,100,40,2.33,US,1581213316
13,port elizabeth,-33.92,25.57,66.2,93,8,1.12,ZA,1581213363
14,mackay,-21.15,149.2,90.0,66,0,14.99,AU,1581213380
15,puerto ayora,-0.74,-90.35,78.93,85,39,6.13,EC,1581213380
16,hobart,-42.88,147.33,72.0,45,75,4.7,AU,1581213380
17,hilo,19.73,-155.09,77.0,47,90,3.36,US,1581213380
18,mahibadhoo,3.78,72.97,81.54,80,63,10.22,MV,1581213380
19,arraial do cabo,-22.97,-42.03,77.09,82,58,25.84,BR,1581213380
20,nokaneng,-19.67,22.27,69.6,84,0,6.82,BW,1581213380
21,punta arenas,-53.15,-70.92,55.4,71,66,12.75,CL,1581213381
22,lompoc,34.64,-120.46,55.99,81,40,11.41,US,1581213381
23,ushuaia,-54.8,-68.3,55.4,66,0,5.82,AR,1581213381
24,palmer,42.16,-72.33,28.4,58,1,6.93,US,1581213276
25,biak,-0.91,122.88,83.57,72,100,9.35,ID,1581213381
26,aklavik,68.22,-135.01,-20.2,75,90,4.7,CA,1581213381
27,lavrentiya,65.58,-171.0,-20.13,88,28,8.46,RU,1581213381
28,peniche,39.36,-9.38,53.01,81,15,4.7,PT,1581213381
29,sampit,-2.53,112.95,87.12,63,100,4.03,ID,1581213381
30,arlit,18.74,7.39,59.86,16,0,11.25,NE,1581213381
31,avarua,-21.21,-159.78,84.2,74,100,13.87,CK,1581213381
32,ribeira grande,38.52,-28.7,58.84,84,100,15.28,PT,1581213381
33,esperance,-33.87,121.9,69.8,56,75,18.34,AU,1581213381
34,east london,-33.02,27.91,69.46,80,33,1.3,ZA,1581213382
35,chuy,-33.7,-53.46,66.51,86,11,9.84,UY,1581213382
36,busselton,-33.65,115.33,73.99,31,0,10.47,AU,1581213382
37,meridian,43.61,-116.39,42.8,60,90,6.93,US,1581213360
38,tiksi,71.69,128.87,-19.08,66,0,5.1,RU,1581213382
39,kapit,2.02,112.93,87.21,63,100,0.09,MY,1581213382
40,ostrovnoy,68.05,39.51,23.86,91,100,16.84,RU,1581213382
41,heilbron,-27.28,27.97,56.88,93,0,4.03,ZA,1581213382
42,cabo san lucas,22.89,-109.91,69.01,77,75,5.82,MX,1581213383
43,haicheng,40.85,122.75,31.46,61,66,15.99,CN,1581213384
44,thompson,55.74,-97.86,8.6,84,75,4.7,CA,1581213188
45,puerto colombia,10.99,-74.95,80.6,74,54,13.87,CO,1581213384
46,barguzin,53.62,109.62,6.73,95,100,8.93,RU,1581213384
47,krabi,8.07,98.91,80.6,88,20,4.7,TH,1581213384
48,victor harbor,-35.57,138.62,89.01,37,0,16.11,AU,1581213384
49,cap malheureux,-19.98,57.61,77.0,73,20,5.82,MU,1581213121
50,barrow,71.29,-156.79,-34.6,96,1,4.99,US,1581213384
51,port moresby,-9.44,147.18,78.8,94,75,10.29,PG,1581213384
52,ati,13.22,18.34,70.11,26,58,12.62,TD,1581213384
53,souillac,-20.52,57.52,77.0,73,20,5.82,MU,1581213384
54,rimbey,52.63,-114.24,23.0,67,20,4.7,CA,1581213384
55,bredasdorp,-34.53,20.04,69.8,83,9,3.36,ZA,1581213384
56,ormond beach,29.29,-81.06,59.0,93,1,6.46,US,1581213384
57,sayyan,15.17,44.32,52.56,84,0,4.03,YE,1581213385
58,havre-saint-pierre,50.23,-63.6,3.2,45,1,9.17,CA,1581213385
59,bethel,41.37,-73.41,33.8,86,75,3.33,US,1581213385
60,tuktoyaktuk,69.45,-133.04,-25.6,74,90,3.36,CA,1581213385
61,castro,-24.79,-50.01,63.5,98,77,2.73,BR,1581213385
62,olhao,37.03,-7.84,55.4,100,75,2.24,PT,1581213385
63,hami,42.8,93.45,25.9,47,0,1.48,CN,1581213385
64,vadso,70.07,29.75,23.0,92,75,17.22,NO,1581213385
65,yellowknife,62.46,-114.35,-5.8,83,75,2.24,CA,1581213385
66,te anau,-45.42,167.72,59.05,64,26,5.99,NZ,1581213385
67,fortuna,40.6,-124.16,48.0,70,75,23.04,US,1581213304
68,grindavik,63.84,-22.43,30.2,92,40,9.17,IS,1581213385
69,qaanaaq,77.48,-69.36,-20.88,67,0,4.45,GL,1581213385
70,tromso,69.65,18.96,37.4,88,90,16.11,NO,1581213386
71,norman wells,65.28,-126.83,-5.8,83,75,2.24,CA,1581213386
72,jamestown,42.1,-79.24,26.01,100,90,1.68,US,1581213386
73,nanortalik,60.14,-45.24,17.8,77,67,39.55,GL,1581213386
74,atuona,-9.8,-139.03,81.52,68,0,15.66,PF,1581213386
75,coihueco,-36.62,-71.83,78.8,21,0,5.82,CL,1581213386
76,cape town,-33.93,18.42,68.0,100,75,16.11,ZA,1581213152
77,lindi,-10.0,39.72,73.67,91,77,2.26,TZ,1581213386
78,vila franca do campo,37.72,-25.43,62.6,93,75,14.99,PT,1581213386
79,fairbanks,64.84,-147.72,30.2,92,90,4.7,US,1581213339
80,kavieng,-2.57,150.8,83.77,80,94,15.9,PG,1581213387
81,kharan,28.58,65.42,54.23,37,72,2.91,PK,1581213387
82,dicabisagan,17.08,122.42,71.73,86,100,16.44,PH,1581213387
83,brownwood,31.71,-98.99,60.8,71,1,10.29,US,1581213387
84,agadir,30.42,-9.6,53.6,100,100,3.36,MA,1581213387
85,kysyl-syr,63.9,122.76,-20.69,96,100,11.14,RU,1581213387
86,itoman,26.12,127.67,64.4,45,20,14.99,JP,1581213388
87,bitung,1.45,125.18,86.0,62,20,10.29,ID,1581213388
88,hasaki,35.73,140.83,43.0,34,20,5.82,JP,1581213388
89,leningradskiy,69.38,178.42,-20.04,91,100,23.67,RU,1581213388
90,kloulklubed,7.04,134.26,84.2,70,75,12.75,PW,1581213388
91,luderitz,-26.65,15.16,64.4,82,0,10.29,NA,1581213388
92,damietta,31.42,31.81,55.2,61,0,22.86,EG,1581213388
93,kapaa,22.08,-159.32,77.0,53,90,21.92,US,1581213388
94,saint anthony,45.02,-93.22,15.8,51,1,4.7,US,1581213388
95,provideniya,64.38,-173.3,-21.86,90,0,10.83,RU,1581213389
96,georgetown,5.41,100.34,82.4,69,20,4.7,MY,1581213363
97,tateyama,34.98,139.87,46.0,30,20,14.99,JP,1581213389
98,khatanga,71.97,102.5,-9.2,96,100,4.38,RU,1581213090
99,cocorit,27.58,-109.97,71.6,43,75,4.7,MX,1581213389
100,iqaluit,63.75,-68.51,-22.0,67,75,2.24,CA,1581213390
101,teya,60.38,92.63,27.54,96,94,7.11,RU,1581213390
102,hermanus,-34.42,19.23,64.99,94,67,11.3,ZA,1581213390
103,portland,45.52,-122.68,46.4,70,75,10.29,US,1581213358
104,atyrau,47.12,51.88,28.4,86,75,13.42,KZ,1581213390
105,hithadhoo,-0.6,73.08,82.69,72,97,7.85,MV,1581213390
106,kalmunai,7.42,81.82,79.63,68,4,11.39,LK,1581213390
107,severnoye,56.35,78.36,6.4,96,100,4.07,RU,1581213390
108,chumikan,54.72,135.31,-4.61,81,0,1.74,RU,1581213390
109,vaini,-21.2,-175.2,87.8,74,20,10.29,TO,1581213390
110,cidreira,-30.18,-50.21,77.94,89,27,14.61,BR,1581213390
111,adrar,20.5,-10.07,65.84,13,83,9.71,MR,1581213390
112,kirakira,-10.45,161.92,83.35,77,100,19.06,SB,1581213390
113,ilulissat,69.22,-51.1,10.4,66,66,1.12,GL,1581213097
114,umm lajj,25.02,37.27,53.6,48,88,7.34,SA,1581213391
115,ambulu,-8.35,113.61,80.62,84,100,20.87,ID,1581213391
116,havre,49.58,0.33,46.4,81,100,16.11,FR,1581213391
117,saint-louis,16.33,-15.0,73.38,11,100,12.66,SN,1581213391
118,nikolskoye,59.7,30.79,32.0,93,75,8.95,RU,1581213391
119,pisco,-13.7,-76.22,73.0,83,75,20.8,PE,1581213110
120,narsaq,60.92,-46.05,15.8,47,75,8.05,GL,1581213391
121,ereymentau,51.62,73.1,33.13,99,100,6.71,KZ,1581213391
122,yeppoon,-23.13,150.73,87.8,62,75,8.05,AU,1581213391
123,savonlinna,61.87,28.92,33.8,95,90,11.41,FI,1581213391
124,cooma,-36.23,149.13,57.2,87,100,9.17,AU,1581213391
125,coquimbo,-29.95,-71.34,60.8,87,20,8.05,CL,1581213103
126,pudozh,61.81,36.53,30.31,93,100,11.65,RU,1581213392
127,shetpe,44.17,52.12,28.96,78,100,21.97,KZ,1581213392
128,teguise,29.06,-13.56,64.4,77,100,18.34,ES,1581213392
129,rio gallegos,-51.62,-69.22,57.2,54,0,10.29,AR,1581213392
130,geraldton,-28.77,114.6,77.0,53,0,17.22,AU,1581213392
131,ratnagiri,16.98,73.3,71.98,66,81,5.73,IN,1581213103
132,bluff,-46.6,168.33,55.0,86,100,14.0,NZ,1581213392
133,pevek,69.7,170.31,-29.51,100,100,6.08,RU,1581213392
134,mar del plata,-38.0,-57.56,62.01,67,75,11.41,AR,1581213392
135,mongoumba,3.64,18.59,79.72,31,93,6.11,CF,1581213392
136,rocha,-34.48,-54.33,66.78,69,100,13.13,UY,1581213392
137,samarai,-10.62,150.67,87.55,60,100,12.55,PG,1581213392
138,proletarsk,46.7,41.72,17.69,69,0,4.45,RU,1581213393
139,maumere,-8.62,122.21,80.64,84,100,12.84,ID,1581213393
140,port hawkesbury,45.62,-61.35,19.99,85,90,6.93,CA,1581213393
141,bonavista,48.65,-53.11,21.0,71,24,13.0,CA,1581213393
142,hamilton,39.18,-84.53,34.0,90,90,4.38,US,1581213324
143,caconda,-13.73,15.07,61.38,95,100,3.78,AO,1581213393
144,taltal,-25.4,-70.48,59.22,91,3,1.9,CL,1581213315
145,port alfred,-33.59,26.89,66.0,97,4,1.01,ZA,1581213393
146,asau,46.43,26.4,28.4,79,90,3.36,RO,1581213393
147,henties bay,-22.12,14.28,63.0,88,0,2.42,NA,1581213119
148,santiago de chuco,-8.15,-78.18,45.93,92,100,3.11,PE,1581213393
149,hailar,49.2,119.7,1.92,93,1,2.46,CN,1581213393
150,broken hill,-31.95,141.43,68.0,88,90,18.34,AU,1581213393
151,mitu,1.2,-70.17,75.65,82,77,1.9,CO,1581213393
152,tilichiki,60.47,166.1,-21.21,89,0,8.61,RU,1581213393
153,ahipara,-35.17,173.17,67.03,69,58,21.83,NZ,1581213176
154,banjar,-8.19,114.97,77.0,100,75,11.41,ID,1581213393
155,san cristobal,7.77,-72.22,80.6,65,40,2.24,VE,1581213107
156,gimli,50.63,-96.99,0.99,94,98,4.7,CA,1581213242
157,veraval,20.9,70.37,64.6,36,26,12.33,IN,1581213394
158,zyryanka,65.75,150.85,-18.85,78,93,13.44,RU,1581213394
159,cessnock,-32.83,151.35,71.01,100,90,8.05,AU,1581213394
160,lata,40.16,-8.33,52.0,93,20,1.12,PT,1581213394
161,kingaroy,-26.53,151.83,86.0,65,75,10.29,AU,1581213394
162,pundaguitan,6.37,126.17,79.65,74,100,9.01,PH,1581213394
163,ponta do sol,32.67,-17.1,64.4,68,20,5.82,PT,1581213394
164,nouadhibou,20.93,-17.03,64.4,77,0,20.8,MR,1581213394
165,tharad,24.4,71.63,59.72,33,0,5.75,IN,1581213394
166,sibolga,1.74,98.78,83.97,62,57,1.83,ID,1581213394
167,flinders,-34.58,150.86,68.0,100,90,21.92,AU,1581213394
168,sao filipe,14.9,-24.5,71.91,57,99,20.11,CV,1581213395
169,clive,41.6,-93.72,28.4,68,1,6.93,US,1581213395
170,upernavik,72.79,-56.15,-20.13,94,100,3.69,GL,1581213395
171,saint-pierre,-21.34,55.48,73.4,78,20,10.29,RE,1581213395
172,nago,26.59,127.98,64.4,45,20,14.99,JP,1581213396
173,kontagora,10.4,5.47,73.15,17,8,8.14,NG,1581213396
174,cherskiy,68.75,161.3,-23.33,77,78,6.26,RU,1581213396
175,husavik,66.04,-17.34,26.6,79,1,4.7,IS,1581213396
176,new norfolk,-42.78,147.06,72.0,45,75,4.7,AU,1581213396
177,ternate,0.8,127.4,88.12,47,100,4.5,ID,1581213396
178,harper,4.38,-7.72,76.37,94,21,1.7,LR,1581213396
179,gaillac,43.9,1.9,50.0,81,1,10.29,FR,1581213396
180,katsuura,35.13,140.3,43.0,30,20,14.99,JP,1581213396
181,sisimiut,66.94,-53.67,-7.55,96,100,6.38,GL,1581213396
182,taybad,34.74,60.78,49.84,39,0,24.29,IR,1581213396
183,sao mateus,-18.72,-39.86,74.59,90,100,3.15,BR,1581213294
184,los llanos de aridane,28.66,-17.92,64.4,72,63,9.17,ES,1581213396
185,butaritari,3.07,172.79,83.68,80,79,17.74,KI,1581213397
186,arona,28.1,-16.68,66.0,72,20,6.93,ES,1581213397
187,langsa,4.47,97.97,83.98,62,57,4.52,ID,1581213397
188,upata,8.01,-62.4,68.54,81,0,4.25,VE,1581213397
189,upington,-28.45,21.26,75.2,33,0,12.75,ZA,1581213397
190,salym,60.06,71.48,-17.18,97,0,4.32,RU,1581213397
191,marawi,8.0,124.29,81.0,70,39,4.0,PH,1581213397
192,lagoa,39.05,-27.98,62.01,80,100,23.13,PT,1581213397
193,vestmannaeyjar,63.44,-20.27,36.9,67,97,8.7,IS,1581213397
194,pitlochry,56.71,-3.73,39.2,93,90,3.36,GB,1581213397
195,longhua,23.61,114.19,53.04,70,100,3.85,CN,1581213397
196,rafaela,-31.25,-61.49,77.0,70,43,1.99,AR,1581213397
197,saint-augustin,51.23,-58.65,-9.69,90,0,13.96,CA,1581213397
198,suileng,47.25,127.08,5.9,91,100,10.8,CN,1581213397
199,sechura,-5.56,-80.82,73.96,85,99,8.37,PE,1581213398
200,balti,47.76,27.93,30.2,50,66,1.12,MD,1581213398
201,lieksa,63.32,30.02,30.72,90,100,12.21,FI,1581213398
202,vila velha,-20.33,-40.29,77.0,88,40,3.36,BR,1581213398
203,brae,60.4,-1.35,41.0,86,98,13.87,GB,1581213398
204,polunochnoye,60.87,60.42,-7.96,87,0,3.62,RU,1581213398
205,mount isa,-20.73,139.5,95.0,32,0,6.93,AU,1581213398
206,peer,51.13,5.46,46.0,93,66,8.05,BE,1581213398
207,mabaruma,8.2,-59.78,67.19,98,0,2.33,GY,1581213398
208,balkanabat,39.51,54.37,44.56,82,33,7.85,TM,1581213398
209,key largo,25.09,-80.45,73.0,78,90,5.82,US,1581213398
210,fayaoue,-20.65,166.53,82.04,83,100,24.05,NC,1581213398
211,clyde river,70.47,-68.59,-27.4,74,75,9.17,CA,1581213399
212,tolaga bay,-38.37,178.3,62.65,63,9,6.35,NZ,1581213400
213,evensk,61.95,159.23,-4.92,60,0,9.89,RU,1581213400
214,komsomolskiy,40.43,71.72,39.2,47,71,4.7,UZ,1581213400
215,buala,-8.14,159.59,83.77,79,12,15.26,SB,1581213120
216,sinjai,-5.12,120.25,83.05,69,100,4.97,ID,1581213400
217,prince rupert,54.32,-130.32,39.2,66,90,2.24,CA,1581213297
218,hofn,64.25,-15.21,38.39,63,29,6.53,IS,1581213400
219,jati,24.35,68.27,59.61,21,6,8.48,PK,1581213400
220,gazanjyk,39.24,55.52,45.61,84,28,7.94,TM,1581213400
221,kruisfontein,-34.0,24.73,63.66,88,0,2.71,ZA,1581213400
222,alofi,-19.06,-169.92,78.8,94,100,6.93,NU,1581213116
223,candelaria,13.93,121.42,75.0,96,100,5.01,PH,1581213400
224,saskylakh,71.92,114.08,-8.14,98,100,1.23,RU,1581213400
225,serafimovich,49.58,42.74,6.01,85,96,8.61,RU,1581213400
226,sitka,57.05,-135.33,37.4,86,90,12.75,US,1581213400
227,petaluma,38.23,-122.64,61.0,62,1,6.85,US,1581213240
228,moose factory,51.26,-80.61,5.0,60,90,13.87,CA,1581213401
229,victoria,22.29,114.16,62.01,77,40,6.93,HK,1581213174
230,sao felix do xingu,-6.64,-51.99,68.34,98,100,1.34,BR,1581213401
231,bafoulabe,13.81,-10.83,69.28,12,35,3.18,ML,1581213401
232,manoel urbano,-8.84,-69.26,72.77,94,0,2.93,BR,1581213401
233,pangody,65.85,74.49,-17.07,96,0,8.66,RU,1581213401
234,tuatapere,-46.13,167.68,55.0,86,76,14.0,NZ,1581213401
235,omboue,-1.57,9.26,75.56,94,100,3.18,GA,1581213401
236,kaoma,-14.78,24.8,64.81,98,100,5.1,ZM,1581213401
237,somerset,40.57,-74.55,37.0,47,1,3.15,US,1581213257
238,sept-iles,50.2,-66.38,-0.4,44,5,6.93,CA,1581213401
239,paamiut,61.99,-49.67,8.08,84,95,23.47,GL,1581213107
240,coos bay,43.37,-124.22,45.0,87,90,11.41,US,1581213402
241,berlevag,70.86,29.09,37.85,79,78,19.17,NO,1581213402
242,okha,53.57,142.95,1.53,93,100,20.31,RU,1581213402
243,ust-ishim,57.69,71.17,0.84,96,100,5.77,RU,1581213402
244,puerto cabezas,14.04,-83.39,73.51,91,1,4.16,NI,1581213403
245,kargasok,59.06,80.86,2.55,96,98,9.04,RU,1581213403
246,riyadh,24.69,46.72,62.6,33,0,6.93,SA,1581213245
247,wete,-5.06,39.73,80.42,81,20,8.19,TZ,1581213403
248,ferme-neuve,46.7,-75.45,-6.74,93,0,3.04,CA,1581213403
249,bulgan,48.81,103.53,23.43,67,35,4.18,MN,1581213403
250,djibo,14.1,-1.63,66.67,15,0,9.73,BF,1581213403
251,ribeira brava,32.65,-17.07,64.4,68,20,5.82,PT,1581213403
252,copacabana,6.35,-75.51,62.6,93,40,2.24,CO,1581213403
253,saint john,45.27,-66.07,12.2,78,75,9.17,CA,1581213335
254,saint george,37.1,-113.58,57.2,31,1,4.7,US,1581213106
255,dunedin,-45.87,170.5,57.06,74,100,21.45,NZ,1581213404
256,ushirombo,-3.49,31.96,63.54,96,0,3.09,TZ,1581213404
257,ucluelet,48.93,-125.55,48.2,66,5,5.82,CA,1581213405
258,bengkulu,-3.8,102.27,84.65,61,100,3.11,ID,1581213405
259,puerto ayacucho,5.66,-67.62,73.2,62,17,3.02,VE,1581213183
260,colquechaca,-18.67,-66.02,49.17,93,98,3.96,BO,1581213405
261,middelburg,-25.78,29.46,57.51,93,22,1.74,ZA,1581213405
262,talnakh,69.49,88.4,-13.0,83,34,4.47,RU,1581213405
263,usinsk,65.99,57.53,-11.52,98,100,14.81,RU,1581213405
264,senanga,-16.12,23.27,68.11,92,100,0.67,ZM,1581213405
265,zajecar,43.9,22.26,29.35,69,0,2.44,RS,1581213405
266,fort-shevchenko,44.51,50.26,29.89,96,100,21.03,KZ,1581213405
267,zarautz,43.28,-2.17,50.0,100,24,2.24,ES,1581213405
268,college,64.86,-147.8,30.2,92,90,4.7,US,1581213405
269,laguna,38.42,-121.42,62.6,69,1,3.36,US,1581213405
270,ust-nera,64.57,143.2,-31.41,100,100,3.06,RU,1581213405
271,leshukonskoye,64.9,45.76,15.33,94,100,8.25,RU,1581213405
272,matara,5.95,80.54,77.43,67,21,7.78,LK,1581213405
273,asgabat,37.95,58.38,55.4,62,75,6.93,TM,1581213306
274,jam sahib,26.3,68.63,58.03,26,0,2.46,PK,1581213406
275,saint-philippe,-21.36,55.77,73.4,78,20,10.29,RE,1581213406
276,mersing,2.43,103.84,79.72,84,100,17.34,MY,1581213406
277,chinchani,19.87,72.7,72.18,50,34,14.03,IN,1581213406
278,kaitangata,-46.28,169.85,55.22,81,100,25.93,NZ,1581213406
279,lovozero,68.0,35.01,24.8,94,100,5.28,RU,1581213406
280,tayshet,55.93,98.0,35.62,80,100,12.08,RU,1581213406
281,mansa,29.98,75.38,49.15,56,0,2.01,IN,1581213406
282,tongren,27.72,109.19,48.27,63,10,5.12,CN,1581213406
283,jawhar,2.78,45.5,70.25,94,23,7.72,SO,1581213406
284,russell,32.35,-85.2,46.4,93,1,3.8,US,1581213406
285,tazovskiy,67.47,78.7,-15.03,92,65,7.78,RU,1581213406
286,amahai,-3.33,128.92,84.63,70,88,11.81,ID,1581213407
287,uruzgan,32.83,66.0,22.42,46,100,9.19,AF,1581213407
288,faanui,-16.48,-151.75,82.4,83,100,21.18,PF,1581213408
289,kahului,20.89,-156.47,73.4,60,40,11.52,US,1581213408
290,teahupoo,-17.83,-149.27,87.8,58,40,5.82,PF,1581213408
291,torbay,47.67,-52.73,24.01,67,90,23.04,CA,1581213408
292,bathsheba,13.22,-59.52,78.8,78,75,17.22,BB,1581213246
293,kamenka,51.32,42.77,1.99,88,0,3.0,RU,1581213408
294,guerrero negro,27.98,-114.06,61.02,78,59,6.87,MX,1581213408
295,faya,18.39,42.45,59.0,87,21,3.91,SA,1581213408
296,chengde,40.97,117.94,26.31,61,0,4.12,CN,1581213408
297,kulhudhuffushi,6.62,73.07,81.75,76,68,16.44,MV,1581213141
298,dubbo,-32.25,148.62,68.0,88,75,14.99,AU,1581213157
299,hitoyoshi,32.22,130.75,44.6,56,20,8.05,JP,1581213408
300,whitecourt,54.15,-115.69,24.8,68,5,4.7,CA,1581213408
301,ishikari,43.24,141.35,21.0,56,75,12.75,JP,1581213408
302,cayenne,4.93,-52.33,80.6,74,89,6.93,GF,1581213408
303,longfeng,46.55,125.12,10.27,90,100,6.93,CN,1581213409
304,amasya,40.67,35.83,23.0,67,75,4.7,TR,1581213409
305,houma,29.6,-90.72,62.6,87,20,5.82,US,1581213410
306,ironton,38.54,-82.68,35.6,100,90,4.03,US,1581213410
307,holme,56.11,10.17,42.8,93,67,12.75,DK,1581213410
308,killybegs,54.63,-8.45,46.0,94,100,14.0,IE,1581213410
309,labuhan,-6.88,112.21,83.64,74,100,7.23,ID,1581213410
310,diffa,13.32,12.61,65.37,26,4,13.4,NE,1581213410
311,bandipur,27.93,84.42,54.16,32,0,1.92,NP,1581213410
312,tocopilla,-22.09,-70.2,59.88,46,41,3.56,CL,1581213410
313,walvis bay,-22.96,14.51,63.0,87,9,5.82,NA,1581213410
314,klaksvik,62.23,-6.59,39.2,69,1,8.05,FO,1581213410
315,nantucket,41.28,-70.1,33.8,60,1,3.36,US,1581213410
316,ixtapa,20.7,-105.2,77.0,73,75,9.17,MX,1581213410
317,hanzhong,33.07,107.03,49.3,42,0,1.9,CN,1581213410
318,anito,12.45,125.29,80.31,81,69,22.1,PH,1581213413
319,amapa,1.0,-52.0,70.63,98,97,2.3,BR,1581213299
320,campos,-21.75,-41.3,71.24,96,0,4.0,BR,1581213413
321,khorixas,-20.37,14.97,66.92,44,10,3.06,NA,1581213413
322,tessalit,20.2,1.01,62.46,15,68,11.95,ML,1581213229
323,ankang,32.68,109.02,51.01,32,0,5.99,CN,1581213415
324,san patricio,19.22,-104.7,78.8,83,5,6.87,MX,1581213415
325,vardo,70.37,31.11,35.4,80,100,15.12,NO,1581213415
326,lidkoping,58.51,13.16,39.99,100,100,11.41,SE,1581213415
327,douglas,41.3,-96.17,37.0,64,40,16.11,US,1581213415
328,andenes,69.31,16.12,39.0,86,100,9.17,NO,1581213415
329,avera,33.19,-82.53,44.6,93,90,3.36,US,1581213415
330,ergani,38.27,39.76,24.8,53,1,23.04,TR,1581213415
331,awjilah,29.11,21.29,50.04,63,0,4.65,LY,1581213415
332,lebu,-37.62,-73.65,56.73,77,0,6.42,CL,1581213415
333,kerman,30.28,57.08,53.6,76,75,2.24,IR,1581213415
334,pangai,-19.8,-174.35,81.43,81,4,20.38,TO,1581213415
335,qiongshan,20.01,110.35,66.2,77,40,15.66,CN,1581213415
336,comodoro rivadavia,-45.87,-67.5,55.4,87,0,3.36,AR,1581213415
337,huanan,46.22,130.52,8.87,81,99,9.26,CN,1581213415
338,margate,51.38,1.39,48.2,81,20,24.16,GB,1581213124
339,tortoli,39.93,9.66,48.2,81,5,10.29,IT,1581213416
340,saldanha,-33.01,17.94,60.8,93,2,6.93,ZA,1581213416
341,lima,-12.04,-77.03,73.4,83,100,11.41,PE,1581213222
342,akhtubinsk,48.28,46.17,14.92,89,70,9.44,RU,1581213416
343,kaeo,-35.1,173.78,77.0,63,67,8.99,NZ,1581213416
344,porto novo,6.5,2.6,80.6,94,0,8.05,BJ,1581213416
345,yar-sale,66.83,70.83,-0.22,96,100,5.99,RU,1581213416
346,borodino,55.91,94.9,35.78,78,100,18.72,RU,1581213416
347,ilo,-17.64,-71.34,70.32,83,100,3.18,PE,1581213416
348,ipubi,-7.65,-40.15,67.86,88,92,1.25,BR,1581213416
349,likasi,-10.98,26.73,60.42,95,100,2.53,CD,1581213416
350,maniitsoq,65.42,-52.9,3.51,91,100,19.13,GL,1581213416
351,camocim,-2.9,-40.84,73.74,97,28,1.97,BR,1581213420
352,bontang,0.13,117.5,82.4,77,100,8.52,ID,1581213420
353,palasa,18.77,84.42,62.78,96,100,4.76,IN,1581213420
354,hornbaek,56.09,12.45,44.01,93,100,10.29,DK,1581213420
355,redmond,47.67,-122.12,45.0,86,40,4.7,US,1581213166
356,waterfoot,53.69,-2.25,48.2,87,100,17.22,GB,1581213420
357,otjiwarongo,-20.46,16.65,62.6,42,5,2.24,NA,1581213420
358,bud,39.45,-86.18,32.0,80,90,8.05,US,1581213420
359,cordoba,-31.41,-64.18,73.0,92,37,6.29,AR,1581213216
360,muros,42.78,-9.06,57.99,87,40,12.75,ES,1581213420
361,udachnyy,66.42,112.4,-5.8,83,0,2.24,RU,1581213420
362,rivers,50.03,-100.24,15.8,78,90,4.7,CA,1581213420
363,ankazoabo,-22.28,44.52,68.54,83,0,1.52,MG,1581213420
364,sikonge,-5.63,32.77,62.29,96,0,5.7,TZ,1581213421
365,lorengau,-2.02,147.27,82.85,77,100,18.59,PG,1581213421
366,aksu,41.12,80.26,30.33,46,0,1.74,CN,1581213421
367,hambantota,6.12,81.12,68.0,100,20,18.59,LK,1581213421
368,itarema,-2.92,-39.92,75.34,93,97,3.94,BR,1581213421
369,port-gentil,-0.72,8.78,82.24,74,100,8.25,GA,1581213421
370,charters towers,-20.1,146.27,96.62,28,0,1.54,AU,1581213421
371,mancio lima,-7.61,-72.9,73.63,93,100,2.48,BR,1581213421
372,mandalgovi,45.76,106.27,22.86,54,4,18.1,MN,1581213421
373,atar,20.52,-13.05,64.8,18,1,7.92,MR,1581213421
374,alamogordo,32.9,-105.96,46.99,38,0,8.99,US,1581213422
375,muravlenko,63.79,74.52,-17.64,97,38,8.57,RU,1581213422
376,mecca,21.43,39.83,62.2,50,0,3.47,SA,1581213405
377,grand gaube,-20.01,57.66,77.0,73,20,5.82,MU,1581213422
378,rafai,4.95,23.92,75.61,22,59,6.44,CF,1581213422
379,sambava,-14.27,50.17,68.97,95,3,2.73,MG,1581213422
380,diego de almagro,-26.37,-70.05,57.81,54,0,0.6,CL,1581213422
381,nipawin,53.37,-104.0,1.4,91,1,5.82,CA,1581213422
382,constitucion,-35.33,-72.42,53.83,76,0,2.89,CL,1581213422
383,tupanatinga,-8.75,-37.34,73.22,78,100,5.17,BR,1581213126
384,tucumcari,35.17,-103.72,57.2,33,1,19.46,US,1581213422
385,yenagoa,4.92,6.26,75.25,95,84,2.06,NG,1581213422
386,mana,5.66,-53.78,70.57,97,41,2.51,GF,1581213424
387,nakambala,-15.83,27.78,64.36,98,100,4.43,ZM,1581213424
388,tabou,4.42,-7.35,76.37,94,21,1.7,CI,1581213424
389,sainte-marie,-20.9,55.55,73.4,88,90,10.29,RE,1581213424
390,kudahuvadhoo,2.67,72.89,81.88,73,48,10.09,MV,1581213424
391,abha,18.22,42.51,59.0,87,11,1.01,SA,1581213424
392,bambous virieux,-20.34,57.76,77.0,73,20,5.82,MU,1581213424
393,mizdah,31.45,12.98,44.35,48,42,4.05,LY,1581213424
394,vostok,46.49,135.88,-0.18,75,10,3.8,RU,1581213424
395,manokwari,-0.87,134.08,81.14,67,100,9.06,ID,1581213424
396,the valley,18.22,-63.06,78.01,83,75,12.75,AI,1581213225
397,nogliki,51.83,143.17,-2.33,94,100,23.35,RU,1581213424
398,green river,41.53,-109.47,24.8,68,40,20.8,US,1581213425
399,souris,49.62,-100.26,15.8,78,90,4.7,CA,1581213425
400,baykalovo,57.4,63.77,-6.43,94,100,6.29,RU,1581213425
401,tyukhtet,56.54,89.3,34.25,98,100,13.18,RU,1581213425
402,matagami,49.75,-77.63,-4.0,70,1,6.93,CA,1581213425
403,mananjary,-21.22,48.33,77.7,77,21,3.29,MG,1581213425
404,albuquerque,35.08,-106.65,60.8,23,1,5.82,US,1581213386
405,barcelos,41.54,-8.62,51.01,93,20,2.75,PT,1581213157
406,praia da vitoria,38.73,-27.07,62.6,82,40,15.48,PT,1581213425
407,ketchikan,55.34,-131.65,39.2,97,90,13.87,US,1581213425
408,sorong,-0.88,131.25,87.44,58,87,7.31,ID,1581213425
409,abnub,27.27,31.15,43.59,75,0,7.07,EG,1581213426
410,quang ngai,15.12,108.8,74.53,80,69,19.33,VN,1581213427
411,keti bandar,24.14,67.45,62.49,27,27,10.85,PK,1581213427
412,shagonar,51.53,92.8,2.86,96,100,1.83,RU,1581213427
413,dikson,73.51,80.55,-15.02,94,22,8.95,RU,1581213427
414,marzuq,14.4,46.47,61.86,33,2,4.14,YE,1581213427
415,san fernando,15.03,120.69,81.0,65,75,6.93,PH,1581213427
416,moundou,8.57,16.08,70.21,25,100,3.89,TD,1581213427
417,caravelas,-17.71,-39.25,80.35,82,35,13.15,BR,1581213427
418,westport,41.14,-73.36,37.0,69,40,3.36,US,1581213273
419,matinhos,-25.82,-48.54,78.8,88,75,2.24,BR,1581213427
420,longyearbyen,78.22,15.64,19.4,73,0,17.22,SJ,1581213428
421,yurginskoye,56.82,67.39,-0.58,95,100,6.29,RU,1581213428
422,kolt,56.11,10.07,42.8,93,67,12.75,DK,1581213428
423,kapoeta,4.77,33.59,82.58,38,100,9.73,SS,1581213428
424,parana,-31.73,-60.52,81.0,76,1,5.01,AR,1581213254
425,hobyo,5.35,48.53,72.54,83,100,9.75,SO,1581213428
426,egvekinot,66.32,-179.17,-19.12,93,58,17.0,RU,1581213428
427,touros,-5.2,-35.46,78.8,83,20,4.7,BR,1581213428
428,ambilobe,-13.2,49.05,73.26,92,0,3.91,MG,1581213428
429,severo-kurilsk,50.68,156.12,26.94,96,100,44.4,RU,1581213428
430,numan,9.47,12.03,72.54,26,41,4.85,NG,1581213428
431,otradnoye,59.78,30.82,32.0,91,75,8.95,RU,1581213428
432,quesnel,53.0,-122.5,26.6,86,20,3.36,CA,1581213428
433,medyn,54.97,35.86,6.8,84,28,5.28,RU,1581213428
434,khasan,42.43,130.64,19.04,46,17,3.06,RU,1581213429
435,duobao,30.67,112.69,53.01,64,0,5.21,CN,1581213430
436,kisangani,0.52,25.2,73.2,81,69,1.59,CD,1581213430
437,inuvik,68.35,-133.72,-20.2,75,90,4.7,CA,1581213430
438,sakakah,29.97,40.21,46.4,61,6,11.41,SA,1581213430
439,deputatskiy,69.3,139.9,-40.38,98,47,1.59,RU,1581213430
440,pathein,16.78,94.73,82.78,37,0,4.03,MM,1581213202
441,calvinia,-31.47,19.78,64.58,48,0,6.06,ZA,1581213430
442,port hardy,50.7,-127.42,42.8,92,20,10.29,CA,1581213430
443,jinchang,38.5,102.17,33.17,12,0,1.3,CN,1581213430
444,hualmay,-11.1,-77.61,70.41,78,100,3.44,PE,1581213430
445,benalla,-36.55,145.98,84.99,30,40,13.87,AU,1581213430
446,trincomalee,8.57,81.23,78.58,66,0,5.1,LK,1581213158
447,strelka,58.07,93.03,33.87,97,100,9.98,RU,1581213430
448,capim grosso,-11.38,-40.01,72.95,91,100,5.3,BR,1581213430
449,xining,36.62,101.77,26.92,44,71,4.63,CN,1581213252
450,strezhevoy,60.73,77.59,-11.2,76,40,4.47,RU,1581213431
451,ayan,56.45,138.17,-1.34,62,0,0.2,RU,1581213432
452,nikolayevskaya,47.61,41.5,11.03,90,0,4.76,RU,1581213432
453,kerteminde,55.45,10.66,41.65,90,57,15.99,DK,1581213432
454,nakhon thai,17.1,100.84,84.99,57,0,10.29,TH,1581213432
455,san ignacio,17.16,-89.07,80.6,69,100,6.93,BZ,1581213432
456,manacapuru,-3.3,-60.62,77.0,88,75,2.19,BR,1581213432
457,south sioux city,42.47,-96.41,32.0,86,90,11.41,US,1581213432
458,hovd,48.01,91.64,20.3,33,100,2.24,MN,1581213432
459,sarkikaraagac,38.08,31.37,11.39,73,2,5.06,TR,1581213432
460,nambale,0.45,34.25,66.63,55,0,15.41,KE,1581213432
461,cananeia,-25.01,-47.93,73.38,94,0,2.44,BR,1581213432
462,qaqortoq,60.72,-46.03,15.8,47,75,8.05,GL,1581213432
463,chokurdakh,70.63,147.92,-27.31,90,94,3.11,RU,1581213432
464,mezen,65.85,44.24,21.88,96,100,8.97,RU,1581213432
465,ponta delgada,37.73,-25.67,62.6,93,75,14.99,PT,1581213212
466,calmar,53.27,-113.82,21.99,61,5,4.7,CA,1581213433
467,costinesti,43.95,28.63,23.0,79,0,8.05,RO,1581213433
468,kimbe,-5.55,150.14,81.68,81,100,7.49,PG,1581213433
469,nioro,13.35,-15.75,72.52,12,0,8.21,GM,1581213433
470,padre bernardo,-15.35,-48.5,67.03,98,100,4.61,BR,1581213433
471,vredendal,-31.67,18.5,65.19,85,60,6.64,ZA,1581213433
472,huarmey,-10.07,-78.15,70.97,75,100,2.98,PE,1581213433
473,speightstown,13.25,-59.65,78.8,78,75,17.22,BB,1581213433
474,banavar,13.41,76.17,68.67,56,33,4.41,IN,1581213433
475,gushikawa,26.35,127.87,64.4,45,20,14.99,JP,1581213433
476,batsfjord,70.63,29.72,27.0,91,97,10.56,NO,1581213433
477,kwinana,-32.25,115.77,73.0,45,0,16.11,AU,1581213433
478,artyom,40.47,50.33,33.8,100,90,32.21,AZ,1581213433
479,shenzhen,22.55,114.07,62.01,77,40,6.93,CN,1581213148
480,zaysan,47.47,84.87,20.84,62,49,1.5,KZ,1581213434
481,lufilufi,-13.87,-171.6,84.0,89,100,15.01,WS,1581213434
482,namibe,-15.2,12.15,75.2,79,9,11.59,AO,1581213434
483,nome,64.5,-165.41,1.4,84,90,9.17,US,1581213434
484,ubatuba,-23.43,-45.07,76.51,85,0,3.38,BR,1581213434
485,dzilam gonzalez,21.28,-88.93,75.87,85,74,25.84,MX,1581213434
486,verdun,49.25,5.33,45.0,88,36,7.0,FR,1581213434
487,oak ridge,36.01,-84.27,39.2,93,1,3.36,US,1581213251
488,aripuana,-9.17,-60.63,70.41,98,100,1.63,BR,1581213181
489,lerum,57.77,12.27,42.01,93,90,11.41,SE,1581213434
490,tucurui,-3.77,-49.67,71.46,97,100,0.85,BR,1581213434
491,vicksburg,32.35,-90.88,51.8,65,1,6.62,US,1581213429
492,batemans bay,-35.72,150.18,71.01,80,100,5.01,AU,1581213434
493,pauini,-7.71,-66.98,72.95,98,94,1.54,BR,1581213434
494,marsh harbour,26.54,-77.06,71.24,75,80,19.01,BS,1581213435
495,yagodnoye,62.55,149.67,-15.41,75,100,0.65,RU,1581213435
496,zhangjiakou,40.81,114.88,26.74,47,0,11.61,CN,1581213435
497,guatire,10.48,-66.54,75.2,88,46,5.82,VE,1581213442
498,rosetta,31.4,30.42,54.5,63,0,24.25,EG,1581213442
499,camopi,3.17,-52.32,70.48,96,95,3.27,GF,1581213442
500,le port,-20.94,55.29,73.4,88,90,10.29,RE,1581213442
501,xian,34.26,108.93,30.2,92,0,2.24,CN,1581213443
502,oksfjord,70.24,22.35,37.4,76,100,11.41,NO,1581213443
503,zhanaozen,43.3,52.8,28.98,84,100,21.34,KZ,1581213443
504,merauke,-8.47,140.33,82.8,76,100,8.01,ID,1581213443
505,north bend,43.41,-124.22,45.0,75,90,9.17,US,1581213443
506,jacareacanga,-6.22,-57.75,72.34,98,100,0.43,BR,1581213443
507,champerico,14.3,-91.92,77.07,78,4,2.91,GT,1581213443
508,bandarbeyla,9.49,50.81,75.67,79,55,20.51,SO,1581213443
509,rock sound,24.9,-76.2,74.64,87,100,19.62,BS,1581213443
510,tual,-5.67,132.75,79.02,89,100,16.73,ID,1581213443
511,mount gambier,-37.83,140.77,80.6,51,40,12.75,AU,1581213426
512,olafsvik,64.89,-23.71,31.3,79,89,5.57,IS,1581213443
513,broome,42.25,-75.83,21.99,85,90,5.82,US,1581213443
514,miandrivazo,-19.52,45.47,76.51,82,0,2.37,MG,1581213444
515,aden,12.78,45.04,71.67,78,26,4.05,YE,1581213237
516,serenje,-13.23,30.24,63.28,97,100,1.03,ZM,1581213444
517,sokoto,13.06,5.24,67.86,19,0,14.25,NG,1581213444
518,palu,-0.89,119.87,84.99,46,100,2.01,ID,1581213444
519,neryungri,56.67,124.65,7.77,84,67,0.92,RU,1581213444
520,northam,51.03,-4.22,51.01,93,100,25.99,GB,1581213444
521,jaque,7.52,-78.17,70.65,90,18,5.32,PA,1581213444
522,wasilla,61.58,-149.44,39.2,55,90,28.86,US,1581213444
523,seymchan,62.88,152.43,-26.54,89,79,3.49,RU,1581213444
524,poum,-20.23,164.02,82.31,82,100,30.53,NC,1581213444
525,yetkul,54.82,61.59,5.0,84,75,11.18,RU,1581213444
526,songjianghe,42.19,127.48,18.34,58,0,7.07,CN,1581213445
527,osmena,10.52,119.93,80.62,81,0,23.98,PH,1581213445
528,turiacu,-1.66,-45.37,74.7,94,99,4.27,BR,1581213445
529,cuamba,-14.8,36.54,67.03,97,100,1.61,MZ,1581213445
530,umm kaddadah,13.6,26.69,59.27,23,0,17.54,SD,1581213445
531,roebourne,-20.78,117.13,86.05,60,98,19.35,AU,1581213445
532,chara,56.91,118.26,5.09,70,6,2.57,RU,1581213445
533,polovinnoye,54.79,65.99,1.53,97,83,7.36,RU,1581213445
534,pueblo,38.25,-104.61,39.2,86,1,5.82,US,1581213445
535,mankono,8.06,-6.19,69.42,15,44,4.5,CI,1581213445
536,makarov,48.63,142.8,3.79,68,51,6.53,RU,1581213445
537,monster,52.03,4.17,46.99,93,75,17.22,NL,1581213445
538,makakilo city,21.35,-158.09,78.8,60,20,12.75,US,1581213213
539,manta,-0.95,-80.73,80.6,74,20,3.36,EC,1581213445
540,aswan,24.09,32.91,46.94,55,0,11.1,EG,1581213445
541,brokopondo,4.75,-55.17,71.89,91,73,5.7,SR,1581213446
542,mao,39.89,4.27,48.2,93,4,4.7,ES,1581213446
543,sola,-13.88,167.55,83.59,80,100,20.6,VU,1581213446
544,waynesboro,38.07,-78.89,36.0,59,1,3.6,US,1581213446
545,erenhot,43.65,111.98,22.17,65,0,12.64,CN,1581213446
546,lasa,46.62,10.7,32.0,84,18,1.12,IT,1581213446
547,morgan city,29.7,-91.21,62.6,77,1,3.36,US,1581213446
548,petropavlovsk-kamchatskiy,53.05,158.65,24.8,58,20,8.95,RU,1581213446
549,srivardhan,18.03,73.02,72.95,61,93,10.76,IN,1581213446
550,nuuk,64.18,-51.72,12.2,66,71,11.41,GL,1581213446
551,bozeman,45.68,-111.04,28.4,92,90,17.22,US,1581213258
552,porto velho,-8.76,-63.9,75.2,94,20,2.24,BR,1581213446
553,xiangxiang,27.73,112.53,49.86,72,32,5.44,CN,1581213446
554,celestun,20.87,-90.4,75.34,86,99,25.03,MX,1581213446
555,shaunavon,49.65,-108.42,15.87,90,100,14.92,CA,1581213447
556,novouzensk,50.46,48.14,-3.06,95,0,6.82,RU,1581213447
557,codrington,-38.27,141.97,65.89,82,99,26.82,AU,1581213447
558,alyangula,-13.85,136.42,87.8,70,40,6.93,AU,1581213447
559,karaidel,55.83,56.91,-16.83,100,57,1.81,RU,1581213447
560,mareeba,-17.0,145.43,95.0,62,91,8.05,AU,1581213447
561,krasnoselkup,65.7,82.47,-21.17,99,54,4.7,RU,1581213447
562,ishigaki,24.34,124.16,62.6,67,75,16.11,JP,1581213447
563,izumo,35.37,132.77,41.0,38,75,14.99,JP,1581213447
